     3.02           OBSERVATION DATA    M (MIXED)           RINEX VERSION / TYPE
Convert 2.6.6       NovAtel             20230808 122552 UTC PGM / RUN BY / DATE 
RINEX Version 3.02 Observation File                         COMMENT             
                                                            MARKER NAME         
                                                            MARKER NUMBER       
                                                            MARKER TYPE         
                                                            OBSERVER / AGENCY   
                    NovAtel GPSCard                         REC # / TYPE / VERS 
                                                            ANT # / TYPE        
 -2606533.0065  4747235.6075  3357790.0793                  APPROX POSITION XYZ 
        0.0000        0.0000        0.0000                  ANTENNA: DELTA H/E/N
G   12 C1C L1C D1C S1C C2W L2W D2W S2W C2S L2S D2S S2S      SYS / # / OBS TYPES 
R   12 C1C L1C D1C S1C C2P L2P D2P S2P C2C L2C D2C S2C      SYS / # / OBS TYPES 
J    8 C1C L1C D1C S1C C2S L2S D2S S2S                      SYS / # / OBS TYPES 
C    8 C1I L1I D1I S1I C7I L7I D7I S7I                      SYS / # / OBS TYPES 
DBHZ                                                        SIGNAL STRENGTH UNIT
     0.100                                                  INTERVAL            
  2023     8     8     7    21   15.3000000     GPS         TIME OF FIRST OBS   
  2023     8     8     9    39   50.9000000     GPS         TIME OF LAST OBS    
G L1C  0.00000  13 G18 G15 G20 G05 G24 G13 G23 G29 G10 G12  SYS / PHASE SHIFT   
                   G32 G25 G28                              SYS / PHASE SHIFT   
G L2W  0.00000  12 G18 G15 G20 G05 G24 G13 G29 G23 G10 G12  SYS / PHASE SHIFT   
                   G32 G25                                  SYS / PHASE SHIFT   
G L2S -0.25000  10 G18 G15 G05 G24 G23 G29 G10 G32 G12 G25  SYS / PHASE SHIFT   
R L1C  0.00000  12 R10 R11 R01 R24 R23 R08 R17 R02 R12 R18  SYS / PHASE SHIFT   
                   R13 R03                                  SYS / PHASE SHIFT   
R L2P  0.25000  12 R11 R01 R08 R24 R17 R02 R10 R23 R12 R18  SYS / PHASE SHIFT   
                   R13 R03                                  SYS / PHASE SHIFT   
R L2C  0.00000  11 R11 R01 R08 R24 R17 R02 R12 R23 R18 R13  SYS / PHASE SHIFT   
                   R03                                      SYS / PHASE SHIFT   
C L1I  0.00000  17 C16 C25 C13 C04 C23 C03 C08 C01 C06 C27  SYS / PHASE SHIFT   
                   C02 C30 C20 C09 C29 C05 C19              SYS / PHASE SHIFT   
C L7I  0.00000  10 C16 C13 C04 C03 C08 C01 C06 C02 C09 C05  SYS / PHASE SHIFT   
J L1C  0.00000  02 J02 J03                                  SYS / PHASE SHIFT   
J L2S  0.00000  02 J02 J03                                  SYS / PHASE SHIFT   
 12 R10 -7 R11  0 R01  1 R24  2 R23  3 R08  6 R17  4 R02 -4 GLONASS SLOT / FRQ #
    R12 -1 R18 -3 R13 -2 R03  5                             GLONASS SLOT / FRQ #
 C1C  -71.950 C2C  -71.950 C2P  -71.950                     GLONASS COD/PHS/BIS 
    18    18  2185     7                                    LEAP SECONDS        
                                                            END OF HEADER       
> 2023 08 08 07 21 15.3000000  0 22      -0.000000000000
G18  20978312.758 6 110241789.652 6      1315.434          40.000    20978313.813 6  85902680.699 6      1025.016          36.000    20978314.242 6  85902685.707 6      1025.020          41.000  
G15  20304953.867 8 106703256.668 8     -1119.289          51.000    20304955.133 8  83145390.234 8      -872.176          51.000    20304955.141 8  83145397.230 8      -872.176          51.000  
G20  24364894.555 7 128038351.324 7     -2696.160          47.000    24364905.742 6  99770149.223 6     -2100.914          41.000                                                                  
G05  22477802.289 8 118121627.969 8     -1981.223          49.000    22477806.125 8  92042828.555 8     -1543.813          48.000    22477805.992 8  92042820.547 8     -1543.813          49.000  
G24  20799438.789 8 109301798.004 8      2271.996          51.000    20799443.930 8  85170240.332 8      1770.391          51.000    20799443.891 8  85170245.332 8      1770.391          51.000  
G13  22167761.180 8 116492359.922 8     -2866.828          51.000    22167760.961 6  90773266.840 6     -2233.898          41.000                                                                  
J02  37990389.547 6 199640861.949 6       236.367          40.000    37990414.672 8 155564305.113 8       184.195          49.000  
J03  36631073.055 8 192497580.746 8      -126.762          49.000    36631080.000 8 149998126.539 8       -98.777          51.000  
R10  22134229.648 6 117987510.388 6        67.105          39.000                                                                                                                                  
R11  22173851.094 8 118489991.130 8      3180.199          50.000    22173857.453 7  92158897.801 7      2473.500          45.000    22173857.313 7  92158918.781 7      2473.500          45.000  
R01  20483953.945 6 109498094.226 6       329.082          39.000    20483957.492 5  85165185.989 5       255.957          34.000    20483957.797 5  85165186.016 5       255.957          35.000  
R24  20203824.164 6 108038547.189 6       121.004          38.000                                                                                                                                  
R23  20998278.289 4 112326238.300 4     -3607.230          29.000                                                                                                                                  
R08  21628573.008 8 115819629.867 8     -1876.785          49.000    21628573.898 7  90081937.116 7     -1459.723          45.000    21628574.969 7  90081932.112 7     -1459.723          44.000  
C16  36811976.109 6 191689621.668 6       753.586          37.000    36811979.773 6 148226570.051 6       582.734          36.000  
C25  25844095.430 6 134577061.223 6     -1585.602          41.000                                                                  
C13  36214874.539 8 188580359.582 8       651.496          50.000    36214879.398 8 145822298.918 8       503.660          50.000  
C04  38126249.898 6 198533386.539 6       -30.434          41.000    38126253.156 8 153518614.664 8       -23.516          48.000  
C23  24047691.523 8 125222638.484 8       746.551          50.000                                                                  
C03  36607129.500 5 190622928.86325       -24.098          34.000    36607128.047 6 147401733.406 6       -18.422          36.000  
C08  35888079.742 8 186878640.418 8       525.637          51.000    35888074.906 8 144506414.402 8       406.418          50.000  
C01  37125346.703 7 193321423.840 7       -31.113          47.000    37125349.352 8 149488387.367 8       -24.098          49.000  
> 2023 08 08 07 21 15.4000000  0 22      -0.000000000000
G18  20978287.734 6 110241658.164 6      1314.941          40.000    20978288.773 6  85902578.246 6      1024.633          36.000    20978289.219 6  85902583.250 6      1024.633          41.000  
G15  20304975.172 8 106703368.590 8     -1119.117          51.000    20304976.438 8  83145477.445 8      -872.039          51.000    20304976.438 8  83145484.441 8      -872.039          51.000  
G20  24364945.859 7 128038620.934 7     -2696.031          47.000    24364957.039 6  99770359.305 6     -2100.813          41.000                                                                  
G05  22477839.992 8 118121826.113 8     -1981.375          49.000    22477843.836 8  92042982.953 8     -1543.934          48.000    22477843.703 8  92042974.945 8     -1543.930          49.000  
G24  20799395.555 8 109301570.797 8      2272.039          51.000    20799400.695 8  85170063.285 8      1770.422          51.000    20799400.648 8  85170068.285 8      1770.422          51.000  
G13  22167815.734 8 116492646.582 8     -2866.539          51.000    22167815.523 6  90773490.211 6     -2233.672          41.000                                                                  
J02  37990385.031 6 199640838.301 6       236.613          40.000    37990410.180 8 155564286.688 8       184.391          49.000  
J03  36631075.469 8 192497593.406 8      -126.633          49.000    36631082.406 8 149998136.402 8       -98.676          51.000  
R10  22134228.383 6 117987503.693 6        66.996          39.000                                                                                                                                  
R11  22173791.570 8 118489673.095 8      3180.469          50.000    22173797.945 7  92158650.441 7      2473.711          45.000    22173797.805 7  92158671.422 7      2473.711          45.000  
R01  20483947.789 6 109498061.312 6       329.367          39.000    20483951.344 5  85165160.391 5       256.180          34.000    20483951.641 5  85165160.418 5       256.180          35.000  
R24  20203821.914 6 108038535.106 6       120.832          38.000                                                                                                                                  
R23  20998345.727 4 112326599.018 4     -3606.719          29.000                                                                                                                                  
R08  21628608.047 8 115819817.543 8     -1876.648          49.000    21628608.953 7  90082083.089 7     -1459.617          45.000    21628610.031 7  90082078.081 7     -1459.613          44.000  
C16  36811961.641 6 191689546.328 6       753.512          36.000    36811965.305 6 148226511.777 6       582.914          36.000  
C25  25844125.883 6 134577219.785 6     -1585.578          41.000                                                                  
C13  36214862.031 8 188580294.422 8       651.664          50.000    36214866.883 8 145822248.527 8       503.922          50.000  
C04  38126250.477 6 198533389.566 6       -30.129          41.000    38126253.734 8 153518616.996 8       -23.340          49.000  
C23  24047677.188 8 125222563.816 8       746.688          50.000                                                                  
C03  36607129.969 5 190622931.28525       -24.145          34.000    36607128.523 6 147401735.270 6       -18.359          36.000  
C08  35888069.648 8 186878587.848 8       525.746          51.000    35888064.813 8 144506373.746 8       406.566          50.000  
C01  37125347.297 7 193321426.934 7       -30.898          47.000    37125349.945 8 149488389.758 8       -23.887          49.000  
> 2023 08 08 07 21 15.5000000  0 22      -0.000000000000
G18  20978262.711 6 110241526.633 6      1315.195          40.000    20978263.750 6  85902475.754 6      1024.828          36.000    20978264.188 7  85902480.758 7      1024.832          42.000  
G15  20304996.477 8 106703480.543 8     -1119.594          51.000    20304997.742 8  83145564.680 8      -872.414          51.000    20304997.742 8  83145571.680 8      -872.414          51.000  
> 2023 08 08 07 21 15.6000000  0 22      -0.000000000000
G18  20978237.695 6 110241395.172 6      1314.719          40.000    20978238.727 6  85902373.316 6      1024.461          38.000    20978239.172 7  85902378.316 7      1024.461          42.000  
G15  20305017.781 8 106703592.512 8     -1119.695          51.000    20305019.047 8  83145651.930 8      -872.492          51.000    20305019.047 8  83145658.926 8      -872.492          51.000  
G20  24365048.484 7 128039160.227 7     -2696.531          47.000    24365059.672 6  99770779.531 6     -2101.203          41.000                                                                  
> 2023 08 08 07 21 15.7000000  0 22      -0.000000000000
C13                                                                  35960909.266 6 144799678.38326       440.504          38.000  
